City_ID,City,Lat,Lng,Max Temp,Humidity,Cloudiness,Wind Speed,Country,Date
0,Omboue,-1.5746,9.2618,74.75,89,95,6.24,GA,2022-08-21 19:08:08
1,Lamu,-2.2717,40.902,75.42,81,0,16.96,KE,2022-08-21 19:08:08
2,Broken Hill,-31.95,141.4333,51.49,59,10,10.74,AU,2022-08-21 19:08:09
3,Yar-Sale,66.8333,70.8333,54.57,94,100,5.32,RU,2022-08-21 19:08:09
4,Albany,42.6001,-73.9662,87.03,47,100,3.0,US,2022-08-21 19:07:31
5,San Cristobal,7.7669,-72.225,87.98,47,100,7.65,VE,2022-08-21 19:07:02
6,Upernavik,72.7868,-56.1549,40.98,82,35,10.0,GL,2022-08-21 19:08:10
7,Punta Arenas,-53.15,-70.9167,51.91,66,40,24.16,CL,2022-08-21 19:08:10
8,Namatanai,-3.6667,152.4333,77.65,83,81,5.17,PG,2022-08-21 19:08:11
9,Nikolskoye,59.7035,30.7861,70.81,68,34,6.02,RU,2022-08-21 19:08:11
10,Mataura,-46.1927,168.8643,48.47,96,100,1.59,NZ,2022-08-21 19:08:11
11,Bengkulu,-3.8004,102.2655,74.14,87,100,3.76,ID,2022-08-21 19:08:12
12,Kaitangata,-46.2817,169.8464,45.45,83,100,5.61,NZ,2022-08-21 19:08:10
13,Shenzhen,22.5455,114.0683,85.21,92,94,3.27,CN,2022-08-21 19:08:12
14,Yellowknife,62.456,-114.3525,62.56,59,100,6.29,CA,2022-08-21 19:06:17
15,Moree,-29.4667,149.85,45.77,89,24,8.21,AU,2022-08-21 19:08:13
16,Ushuaia,-54.8,-68.3,47.86,66,100,5.75,AR,2022-08-21 19:08:11
17,Marsa Matruh,31.3525,27.2453,79.97,71,0,14.09,EG,2022-08-21 19:08:14
18,Lebu,-37.6167,-73.65,55.54,77,0,12.93,CL,2022-08-21 19:08:14
19,Dubbo,-32.25,148.6167,33.93,100,74,5.75,AU,2022-08-21 19:05:34
20,Bredasdorp,-34.5322,20.0403,48.6,93,0,6.38,ZA,2022-08-21 19:08:15
21,Vanavara,60.34,102.2797,46.49,97,100,4.41,RU,2022-08-21 19:08:15
22,Qaanaaq,77.484,-69.3632,37.45,61,100,4.05,GL,2022-08-21 19:08:15
23,Hithadhoo,-0.6,73.0833,82.22,77,98,11.59,MV,2022-08-21 19:08:16
24,Honningsvag,70.9821,25.9704,62.35,88,75,11.5,NO,2022-08-21 19:08:16
25,Sao Filipe,14.8961,-24.4956,77.14,88,100,7.74,CV,2022-08-21 19:08:17
26,Lata,40.1629,-8.3327,70.25,77,0,6.67,PT,2022-08-21 19:08:17
27,New Norfolk,-42.7826,147.0587,55.92,75,100,1.99,AU,2022-08-21 19:08:17
28,Busselton,-33.65,115.3333,49.66,72,45,10.58,AU,2022-08-21 19:08:18
29,Norman Wells,65.282,-126.8329,64.6,49,100,1.97,CA,2022-08-21 19:08:18
30,Pringsewu,-5.3582,104.9744,71.98,97,100,2.08,ID,2022-08-21 19:08:19
31,Portland,45.5234,-122.6762,83.86,59,14,1.99,US,2022-08-21 19:07:21
32,Rikitea,-23.1203,-134.9692,71.26,72,100,14.88,PF,2022-08-21 19:08:19
33,Neiafu,-18.65,-173.9833,63.28,94,20,0.0,TO,2022-08-21 19:08:20
34,Labuhan,-6.8844,112.2051,75.54,84,89,8.57,ID,2022-08-21 19:08:20
35,Saint-Philippe,-21.3585,55.7679,69.39,69,1,5.86,RE,2022-08-21 19:08:21
36,Novyy Urengoy,66.0833,76.6333,48.54,67,87,4.16,RU,2022-08-21 19:03:40
37,Vaini,-21.2,-175.2,71.76,88,20,6.91,TO,2022-08-21 19:08:21
38,Mamlyutka,54.9375,68.5394,51.71,64,100,6.33,KZ,2022-08-21 19:08:22
39,Vila Velha,-20.3297,-40.2925,71.55,72,20,18.41,BR,2022-08-21 19:08:22
40,Chokurdakh,70.6333,147.9167,55.36,86,100,4.79,RU,2022-08-21 19:08:22
41,Visby,57.6409,18.296,65.82,72,100,5.75,SE,2022-08-21 19:08:23
42,Torbay,47.6666,-52.7314,63.75,79,18,1.99,CA,2022-08-21 19:08:23
43,Winneba,5.3511,-0.6231,74.53,85,17,10.47,GH,2022-08-21 19:08:23
44,Monte Alegre De Minas,-18.8706,-48.8808,82.74,28,34,7.94,BR,2022-08-21 19:08:24
45,Tuktoyaktuk,69.4541,-133.0374,40.96,77,90,13.98,CA,2022-08-21 19:08:24
46,Cidreira,-30.1811,-50.2056,60.42,68,0,8.23,BR,2022-08-21 19:09:25
47,Nantucket,41.2835,-70.0995,80.71,60,0,6.91,US,2022-08-21 19:07:11
48,Mar Del Plata,-38.0023,-57.5575,53.1,79,100,11.5,AR,2022-08-21 19:09:25
49,Vyartsilya,62.1764,30.693,60.62,100,90,6.17,RU,2022-08-21 19:09:26
50,Jamestown,42.097,-79.2353,79.18,56,75,5.75,US,2022-08-21 19:04:44
51,Grandview,38.8858,-94.533,84.65,57,40,9.22,US,2022-08-21 19:09:26
52,Hermanus,-34.4187,19.2345,55.8,85,0,10.54,ZA,2022-08-21 19:09:27
53,Caravelas,-17.7125,-39.2481,71.22,74,95,16.24,BR,2022-08-21 19:09:27
54,Tiksi,71.6872,128.8694,41.0,92,100,14.32,RU,2022-08-21 19:08:22
55,Yeppoon,-23.1333,150.7333,58.78,87,11,9.28,AU,2022-08-21 19:09:28
56,Champerico,14.3,-91.9167,84.94,75,44,8.03,GT,2022-08-21 19:09:28
57,Lazurne,46.084,32.5295,75.94,80,0,12.35,UA,2022-08-21 19:09:29
58,Port Alfred,-33.5906,26.891,56.14,69,0,3.13,ZA,2022-08-21 19:09:29
59,Mahebourg,-20.4081,57.7,67.24,65,50,8.25,MU,2022-08-21 19:09:29
60,Klaksvik,62.2266,-6.589,49.12,85,100,25.12,FO,2022-08-21 19:09:30
61,Daru,-9.0763,143.2092,75.42,86,68,16.06,PG,2022-08-21 19:09:30
62,Gurupi,-11.7292,-49.0686,92.7,18,30,8.66,BR,2022-08-21 19:09:31
63,Pisco,-13.7,-76.2167,62.02,82,75,5.75,PE,2022-08-21 19:09:31
64,Hilo,19.7297,-155.09,82.26,67,0,11.5,US,2022-08-21 19:07:38
65,Nanortalik,60.1432,-45.2371,41.77,82,1,16.04,GL,2022-08-21 19:09:32
66,Arraial Do Cabo,-22.9661,-42.0278,67.86,64,40,11.5,BR,2022-08-21 19:09:32
67,Adrar,20.5022,-10.0711,99.64,22,98,3.2,MR,2022-08-21 19:09:32
68,Cape Town,-33.9258,18.4232,55.11,76,0,1.99,ZA,2022-08-21 19:08:30
69,Castro,-24.7911,-50.0119,60.33,73,94,4.32,BR,2022-08-21 19:09:33
70,Hobart,-42.8794,147.3294,56.26,67,100,23.02,AU,2022-08-21 19:05:33
71,Husavik,66.0449,-17.3389,43.12,67,7,4.92,IS,2022-08-21 19:09:33
72,Ostrovnoy,68.0531,39.5131,63.73,63,0,22.24,RU,2022-08-21 19:09:34
73,Kruisfontein,-34.0033,24.7314,48.88,74,0,5.35,ZA,2022-08-21 19:09:34
74,Aitape,-3.1374,142.3475,75.31,88,26,7.05,PG,2022-08-21 19:09:35
75,Ponta Do Sol,32.6667,-17.1,80.13,43,100,5.99,PT,2022-08-21 19:09:36
76,Saint-Augustin,51.226,-58.6502,76.51,61,16,12.41,CA,2022-08-21 19:09:36
77,Khorixas,-20.3667,14.9667,67.26,10,79,11.27,NA,2022-08-21 19:09:36
78,Coquimbo,-29.9533,-71.3436,59.25,74,3,5.75,CL,2022-08-21 19:09:37
79,Praia,14.9215,-23.5087,81.14,89,75,11.5,CV,2022-08-21 19:09:37
80,Redcliffe,-27.2307,153.0973,55.42,93,75,8.05,AU,2022-08-21 19:09:37
81,Sambava,-14.2667,50.1667,69.13,85,79,10.27,MG,2022-08-21 19:09:38
82,Lingao,19.9103,109.6859,78.31,89,28,7.27,CN,2022-08-21 19:09:38
83,Beringovskiy,63.05,179.3167,49.62,72,9,2.64,RU,2022-08-21 19:08:16
84,San Patricio,28.017,-97.5169,93.06,50,100,15.46,US,2022-08-21 19:09:39
85,Wamba,8.9333,8.6,73.53,88,100,3.2,NG,2022-08-21 19:09:39
86,Mobai,7.9944,-10.7511,72.72,97,98,3.62,SL,2022-08-21 19:09:40
87,Atuona,-9.8,-139.0333,76.77,65,91,16.96,PF,2022-08-21 19:09:40
88,Evensk,61.95,159.2333,52.18,94,100,7.52,RU,2022-08-21 19:09:40
89,Lorengau,-2.0226,147.2712,79.36,80,100,7.92,PG,2022-08-21 19:09:41
90,Alofi,-19.0595,-169.9187,73.63,69,0,7.2,NU,2022-08-21 19:10:41
91,Kapaa,22.0752,-159.319,81.1,69,2,5.01,US,2022-08-21 19:10:42
92,Dikson,73.5069,80.5464,42.48,96,100,10.51,RU,2022-08-21 19:08:12
93,Zemio,5.0314,25.1361,70.05,93,49,1.86,CF,2022-08-21 19:10:42
94,Thompson,55.7435,-97.8558,74.07,38,100,12.44,CA,2022-08-21 19:10:43
95,Kavieng,-2.5744,150.7967,80.49,78,81,10.25,PG,2022-08-21 19:10:43
96,Shimoda,34.6667,138.95,75.11,90,30,12.93,JP,2022-08-21 19:10:43
97,Henties Bay,-22.116,14.2845,61.11,55,87,13.33,NA,2022-08-21 19:10:44
98,Clyde River,70.4692,-68.5914,43.21,87,100,2.91,CA,2022-08-21 19:10:44
99,Puerto Ayora,-0.7393,-90.3518,73.36,90,94,5.99,EC,2022-08-21 19:10:45
100,Esperance,-33.8667,121.9,53.24,70,100,20.42,AU,2022-08-21 19:10:45
101,Flinders,-34.5833,150.8552,53.38,78,100,3.0,AU,2022-08-21 19:10:46
102,Vao,-22.6667,167.4833,70.09,85,100,15.03,NC,2022-08-21 19:10:46
103,Mehamn,71.0357,27.8492,67.95,77,0,16.11,NO,2022-08-21 19:10:46
104,Tucurui,-3.7661,-49.6725,95.13,24,72,6.38,BR,2022-08-21 19:10:24
105,Tuatapere,-46.1333,167.6833,43.88,87,100,2.1,NZ,2022-08-21 19:10:47
106,Qom,34.6401,50.8764,85.51,12,98,10.54,IR,2022-08-21 19:09:17
107,Ust-Tsilma,65.441,52.1498,60.4,62,18,3.74,RU,2022-08-21 19:10:48
108,Bubaque,11.2833,-15.8333,80.49,76,100,8.21,GW,2022-08-21 19:10:48
109,Sayyan,15.1718,44.3244,61.54,76,40,6.35,YE,2022-08-21 19:10:48
110,Kodiak,57.79,-152.4072,53.11,100,100,14.97,US,2022-08-21 19:08:50
111,Provideniya,64.3833,-173.3,49.03,63,0,2.51,RU,2022-08-21 19:10:49
112,Karaton,-6.3424,106.1045,72.9,95,100,1.05,ID,2022-08-21 19:10:49
113,Butaritari,3.0707,172.7902,81.43,76,7,13.35,KI,2022-08-21 19:10:50
114,Synya,65.3718,58.0387,61.74,65,4,4.12,RU,2022-08-21 19:10:50
115,Boa Viagem,-5.1275,-39.7322,91.08,23,33,8.52,BR,2022-08-21 19:10:51
116,Upington,-28.4478,21.2561,58.44,21,0,6.42,ZA,2022-08-21 19:10:51
117,Anchorage,61.2181,-149.9003,58.64,92,100,4.61,US,2022-08-21 19:10:08
118,Hervey Bay,-25.2986,152.8535,62.33,78,62,10.16,AU,2022-08-21 19:10:52
119,Avera,33.194,-82.5271,85.55,52,100,9.1,US,2022-08-21 19:10:52
120,Quelimane,-17.8786,36.8883,70.77,67,41,10.98,MZ,2022-08-21 19:10:53
121,Yulara,-25.2406,130.9889,51.96,42,0,3.98,AU,2022-08-21 19:10:53
122,Kidodi,-7.6036,37.0044,75.4,55,92,4.9,TZ,2022-08-21 19:10:54
123,Nouadhibou,20.931,-17.0347,73.0,88,27,15.66,MR,2022-08-21 19:10:54
124,Bambous Virieux,-20.3428,57.7575,67.21,71,2,8.88,MU,2022-08-21 19:10:55
125,Voznesenye,61.0106,35.4781,65.44,61,17,8.43,RU,2022-08-21 19:10:55
126,Aklavik,68.2191,-135.0107,41.02,92,100,12.82,CA,2022-08-21 19:10:56
127,Kralendijk,12.15,-68.2667,89.58,62,40,11.5,BQ,2022-08-21 19:10:56
128,Oktyabrskiy,54.4815,53.471,70.63,60,100,5.14,RU,2022-08-21 19:10:57
129,Nara,34.6851,135.8049,79.5,73,6,3.67,JP,2022-08-21 19:10:57
130,Pizarro,4.9533,-77.366,80.35,80,97,8.77,CO,2022-08-21 19:10:57
131,Kimamba,-6.7833,37.1333,76.08,52,94,7.43,TZ,2022-08-21 19:09:17
132,Kayerkan,69.3497,87.7602,39.52,100,98,7.63,RU,2022-08-21 19:10:58
133,Sitka,57.0531,-135.33,57.09,94,100,0.0,US,2022-08-21 19:08:51
134,Kiama,-34.6833,150.8667,53.58,75,100,5.01,AU,2022-08-21 19:10:59
135,Saint George,37.1041,-113.5841,91.44,40,0,4.0,US,2022-08-21 19:10:59
136,Tazovskiy,67.4667,78.7,42.33,83,100,1.48,RU,2022-08-21 19:12:00
137,Salalah,17.0151,54.0924,75.29,100,100,5.75,OM,2022-08-21 19:08:55
138,Saint-Pierre,-21.3393,55.4781,69.48,64,0,4.61,RE,2022-08-21 19:12:00
139,Merrill,45.1805,-89.6835,79.59,53,40,6.91,US,2022-08-21 19:12:01
140,Qasigiannguit,68.8193,-51.1922,39.45,80,90,3.09,GL,2022-08-21 19:12:01
141,Codrington,-38.2667,141.9667,52.59,77,100,18.12,AU,2022-08-21 19:12:02
142,Burshtyn,49.2587,24.6278,72.21,57,100,8.08,UA,2022-08-21 19:12:02
143,Faya,18.3851,42.4509,63.12,81,99,6.62,SA,2022-08-21 19:12:03
144,East London,-33.0153,27.9116,58.95,59,0,7.65,ZA,2022-08-21 19:12:03
145,Tutoia,-2.7619,-42.2744,81.88,64,99,9.95,BR,2022-08-21 19:12:04
146,Andenes,69.3143,16.1194,57.18,94,40,3.44,NO,2022-08-21 19:12:04
147,Katsuura,35.1333,140.3,75.6,93,26,12.64,JP,2022-08-21 19:12:05
148,Port Elizabeth,-33.918,25.5701,53.31,89,0,4.0,ZA,2022-08-21 19:12:05
149,Bilibino,68.0546,166.4372,52.5,75,60,3.11,RU,2022-08-21 19:12:06
150,Longyearbyen,78.2186,15.6401,42.64,81,40,4.61,SJ,2022-08-21 19:12:06
151,Burriana,39.889,-0.085,85.95,67,96,2.89,ES,2022-08-21 19:12:06
152,Lavrentiya,65.5833,-171.0,42.46,73,0,8.43,RU,2022-08-21 19:12:07
153,Deputatskiy,69.3,139.9,44.33,90,89,1.07,RU,2022-08-21 19:12:07
154,Hovd,48.0056,91.6419,48.33,45,3,1.9,MN,2022-08-21 19:12:08
155,Georgetown,5.4112,100.3354,78.89,85,20,2.3,MY,2022-08-21 19:12:08
156,Khasan,42.4308,130.6434,66.78,95,98,4.34,RU,2022-08-21 19:12:09
157,Listvyanka,51.8535,104.8693,50.25,88,95,6.87,RU,2022-08-21 19:12:09
158,Zirgan,53.2222,55.9185,63.55,73,17,3.47,RU,2022-08-21 19:12:10
159,Olafsvik,64.8945,-23.7142,47.73,57,100,7.23,IS,2022-08-21 19:12:10
160,Andros Town,24.7,-77.7667,89.56,67,5,15.59,BS,2022-08-21 19:12:10
161,Hasaki,35.7333,140.8333,75.29,93,58,15.35,JP,2022-08-21 19:12:11
162,Eyl,7.9803,49.8164,76.71,80,6,25.61,SO,2022-08-21 19:12:11
163,Pangnirtung,66.1451,-65.7125,49.3,83,100,5.64,CA,2022-08-21 19:12:12
164,Nuuk,64.1835,-51.7216,47.01,76,20,6.91,GL,2022-08-21 19:12:12
165,Lompoc,34.6391,-120.4579,83.01,83,100,9.22,US,2022-08-21 19:12:13
166,Isla Mujeres,21.2311,-86.731,89.65,67,10,7.94,MX,2022-08-21 19:12:13
167,Ribeira Grande,38.5167,-28.7,75.6,73,75,3.44,PT,2022-08-21 19:12:13
168,Saint-Joseph,-21.3667,55.6167,68.38,71,2,5.99,RE,2022-08-21 19:12:14
169,Impfondo,1.6381,18.0667,72.73,92,100,0.58,CG,2022-08-21 19:12:14
170,Chuy,-33.6971,-53.4616,57.33,59,98,3.4,UY,2022-08-21 19:12:15
171,Cabo San Lucas,22.8909,-109.9124,92.5,63,20,5.75,MX,2022-08-21 19:10:03
172,Naze,28.3667,129.4833,80.19,87,64,13.42,JP,2022-08-21 19:12:16
173,Saldanha,-33.0117,17.9442,54.48,80,0,12.5,ZA,2022-08-21 19:12:16
174,Talnakh,69.4865,88.3972,40.21,82,67,8.39,RU,2022-08-21 19:12:17
175,Brae,60.3964,-1.353,52.86,83,5,15.21,GB,2022-08-21 19:12:17
176,Meulaboh,4.1363,96.1285,76.06,88,100,2.98,ID,2022-08-21 19:12:17
177,Luderitz,-26.6481,15.1594,59.92,62,2,10.29,NA,2022-08-21 19:12:18
178,Glendive,47.1053,-104.7125,91.18,32,0,6.91,US,2022-08-21 19:12:18
179,Emerald,-23.5333,148.1667,51.67,77,0,7.05,AU,2022-08-21 19:12:19
180,Karratha,-20.7377,116.8463,68.83,35,3,8.12,AU,2022-08-21 19:12:19
181,Alta Floresta,-9.8756,-56.0861,97.02,16,11,6.82,BR,2022-08-21 19:12:19
182,Kirando,-7.4167,30.6,78.24,55,80,5.97,TZ,2022-08-21 19:12:20
183,Fez,34.0372,-4.9998,98.85,9,0,9.22,MA,2022-08-21 19:12:20
184,Birao,10.2849,22.7882,71.89,94,53,5.08,CF,2022-08-21 19:12:21
185,Faanui,-16.4833,-151.75,78.33,72,51,19.28,PF,2022-08-21 19:13:21
186,Gorontalo,0.5412,123.0595,73.58,91,71,1.86,ID,2022-08-21 19:13:21
187,Bluff,-46.6,168.3333,48.79,61,95,10.25,NZ,2022-08-21 19:13:22
188,Two Hills,53.7169,-111.7518,76.77,49,99,11.27,CA,2022-08-21 19:13:22
189,Seoul,37.5683,126.9778,78.24,83,2,2.66,KR,2022-08-21 19:08:43
190,Christchurch,-43.5333,172.6333,46.9,92,100,1.14,NZ,2022-08-21 19:13:23
191,Yining,29.0361,114.5636,79.38,69,100,2.71,CN,2022-08-21 19:13:23
192,Launceston,-41.45,147.1667,51.8,92,100,24.16,AU,2022-08-21 19:13:24
193,Narsaq,60.9167,-46.05,53.82,47,14,0.49,GL,2022-08-21 19:13:24
194,Vardo,70.3705,31.1107,66.18,63,0,17.27,NO,2022-08-21 19:13:24
195,Muros,42.7762,-9.0603,79.68,82,22,11.99,ES,2022-08-21 19:13:25
196,Borovsk,55.2064,36.4861,68.76,37,100,9.69,RU,2022-08-21 19:13:25
197,Ucluelet,48.9329,-125.5528,65.08,86,100,6.44,CA,2022-08-21 19:13:26
198,Guaruja,-23.9931,-46.2564,69.84,64,100,7.0,BR,2022-08-21 19:13:26
199,Shelburne,44.0787,-80.2041,72.75,93,100,5.64,CA,2022-08-21 19:13:27
200,Saskylakh,71.9167,114.0833,34.48,94,99,5.5,RU,2022-08-21 19:13:27
201,Wuwei,37.9281,102.6414,64.58,66,100,2.04,CN,2022-08-21 19:13:28
202,Urengoy,65.9667,78.3667,44.96,73,97,4.05,RU,2022-08-21 19:13:28
203,Sao Felix Do Xingu,-6.6447,-51.995,96.73,17,100,5.91,BR,2022-08-21 19:11:25
204,Shubarkuduk,49.1447,56.4872,70.41,30,7,10.04,KZ,2022-08-21 19:13:29
205,Cap-Aux-Meules,47.3821,-61.8597,70.77,82,11,13.38,CA,2022-08-21 19:13:29
206,Komsomolskiy,40.4272,71.7189,66.92,34,30,6.91,UZ,2022-08-21 19:13:30
207,Severo-Kurilsk,50.6789,156.125,55.38,99,89,3.87,RU,2022-08-21 19:13:30
208,Mantua,45.1667,10.7833,81.64,69,3,1.01,IT,2022-08-21 19:13:06
209,Homer,59.6425,-151.5483,62.49,65,40,3.44,US,2022-08-21 19:13:30
210,Riviere-Au-Renard,48.9957,-64.3971,79.27,52,61,6.15,CA,2022-08-21 19:13:31
211,Bandarbeyla,9.4942,50.8122,76.23,85,43,31.18,SO,2022-08-21 19:13:31
212,Kem,64.9555,34.5793,62.53,70,96,14.92,RU,2022-08-21 19:13:32
213,Camana,-16.6228,-72.7111,63.52,70,7,8.81,PE,2022-08-21 19:13:32
214,Berlevag,70.8578,29.0864,68.0,77,0,8.05,NO,2022-08-21 19:13:33
215,Ancud,-41.8697,-73.8203,60.22,67,74,4.21,CL,2022-08-21 19:13:33
216,Luangwa,-15.6167,30.4167,78.24,35,0,13.42,ZM,2022-08-21 19:13:33
217,Avarua,-21.2078,-159.775,73.45,88,100,8.05,CK,2022-08-21 19:13:34
218,Dingle,10.9995,122.6711,74.68,92,100,3.71,PH,2022-08-21 19:13:34
219,Bocana De Paiwas,12.7857,-85.1227,83.16,76,83,8.46,NI,2022-08-21 19:13:35
220,Ushtobe,45.2514,77.9838,53.78,43,6,4.63,KZ,2022-08-21 19:13:35
221,Petrolina,-9.3986,-40.5008,82.45,51,40,13.8,BR,2022-08-21 19:13:35
222,Gboko,7.3179,8.9951,79.43,69,100,3.98,NG,2022-08-21 19:13:36
223,Khandbari,27.3747,87.2039,71.92,93,71,2.39,NP,2022-08-21 19:13:36
224,Romny,50.751,33.4747,66.74,46,16,10.8,UA,2022-08-21 19:13:37
225,Darab,28.7519,54.5444,85.62,10,0,12.03,IR,2022-08-21 19:13:37
226,Kosino,58.4127,51.2782,59.36,77,48,2.75,RU,2022-08-21 19:13:38
227,Nyaunglebin,17.95,96.7333,75.33,98,100,4.43,MM,2022-08-21 19:13:38
228,Leningradskiy,69.3833,178.4167,39.63,81,19,11.21,RU,2022-08-21 19:13:38
229,Laguna,38.421,-121.4238,95.09,42,0,11.5,US,2022-08-21 19:13:39
230,Kirakira,-10.4544,161.9205,77.49,85,25,9.89,SB,2022-08-21 19:14:39
231,Narang,31.9132,74.5176,87.76,63,52,4.23,PK,2022-08-21 19:14:40
232,Abu Samrah,35.3029,37.1841,80.24,52,0,12.08,SY,2022-08-21 19:14:40
233,Nome,64.5011,-165.4064,60.87,56,0,10.36,US,2022-08-21 19:14:22
234,Souillac,-20.5167,57.5167,66.58,88,40,4.61,MU,2022-08-21 19:14:40
235,Metro,-5.1131,105.3067,73.62,93,100,2.46,ID,2022-08-21 19:14:41
236,Moose Factory,51.2585,-80.6094,69.8,60,100,5.75,CA,2022-08-21 19:14:41
237,Barrow,71.2906,-156.7887,34.25,69,100,15.23,US,2022-08-21 19:14:42
238,Cherskiy,68.75,161.3,58.23,66,100,11.77,RU,2022-08-21 19:14:42
239,Matara,5.9485,80.5353,77.49,90,100,12.12,LK,2022-08-21 19:14:42
240,Slatinany,49.9211,15.8138,67.59,80,100,6.91,CZ,2022-08-21 19:14:43
241,Moron,-34.6534,-58.6198,65.8,32,100,1.99,AR,2022-08-21 19:14:43
242,Beloha,-25.1667,45.05,61.09,61,0,5.88,MG,2022-08-21 19:14:44
243,Nelidovo,56.2211,32.7774,64.4,51,100,8.81,RU,2022-08-21 19:14:44
244,Darhan,49.4867,105.9228,45.64,83,6,2.64,MN,2022-08-21 19:14:44
245,Bereda,43.2686,-7.5406,73.42,78,21,4.65,ES,2022-08-21 19:14:45
246,Filadelfia,39.9523,-75.1638,87.94,57,75,6.91,US,2022-08-21 19:10:54
247,Bozova,37.3625,38.5267,88.72,47,0,10.02,TR,2022-08-21 19:14:46
248,Vestmannaeyjar,63.4427,-20.2734,51.82,75,89,9.89,IS,2022-08-21 19:14:47
249,Meadow Lake,34.8014,-106.5436,80.06,51,72,5.08,US,2022-08-21 19:14:47
250,Lakes Entrance,-37.8811,147.981,38.16,77,100,8.25,AU,2022-08-21 19:14:48
251,Kikwit,-5.041,18.8162,80.51,55,90,3.67,CD,2022-08-21 19:14:48
252,Ust-Maya,60.4167,134.5333,52.09,80,100,9.48,RU,2022-08-21 19:14:49
253,Esil,51.9556,66.4042,57.79,79,100,7.16,KZ,2022-08-21 19:14:49
254,Rawson,-43.3002,-65.1023,56.1,50,0,24.81,AR,2022-08-21 19:14:49
255,Coxim,-18.5067,-54.76,89.87,29,1,2.1,BR,2022-08-21 19:14:50
256,Taoudenni,22.6783,-3.9836,106.05,13,68,6.04,ML,2022-08-21 19:14:50
257,Zvenyhorodka,49.0787,30.9675,72.39,64,29,7.83,UA,2022-08-21 19:14:51
258,Samarai,-10.6167,150.6667,78.17,85,99,17.07,PG,2022-08-21 19:14:51
259,Quang Ngai,15.1167,108.8,76.91,90,100,4.54,VN,2022-08-21 19:14:35
260,Cap Malheureux,-19.9842,57.6142,67.46,74,14,5.01,MU,2022-08-21 19:14:52
261,Carnarvon,-24.8667,113.6333,65.16,74,0,16.89,AU,2022-08-21 19:11:08
262,Rocha,-34.4833,-54.3333,58.03,52,15,6.51,UY,2022-08-21 19:11:30
263,Northam,51.0333,-4.2167,66.25,85,64,2.21,GB,2022-08-21 19:14:53
264,Todos Santos,23.45,-110.2167,90.05,85,5,11.27,MX,2022-08-21 19:14:53
265,Geraldton,-28.7667,114.6,48.61,93,0,6.91,AU,2022-08-21 19:14:54
266,Ostersund,63.1792,14.6357,63.05,63,0,11.5,SE,2022-08-21 19:14:54
267,Poum,-20.2333,164.0167,72.97,86,22,16.6,NC,2022-08-21 19:14:54
268,Fortuna,40.5982,-124.1573,64.98,88,20,11.5,US,2022-08-21 19:14:55
269,Tura,25.5198,90.2201,77.05,82,100,2.44,IN,2022-08-21 19:14:55
270,Airai,-8.9266,125.4092,51.21,81,14,4.12,TL,2022-08-21 19:14:56
271,Finschhafen,-6.6024,147.8681,77.61,77,87,8.81,PG,2022-08-21 19:14:56
272,Corner Brook,48.9667,-57.9484,77.16,49,2,7.67,CA,2022-08-21 19:15:10
273,Weston,26.1004,-80.3998,95.02,59,20,15.01,US,2022-08-21 19:11:25
274,Soyo,-6.1349,12.3689,70.68,90,2,7.85,AO,2022-08-21 19:15:57
275,Sakakah,29.9697,40.2064,90.09,16,0,8.16,SA,2022-08-21 19:15:57
276,Betioky,-23.7167,44.3833,63.41,58,0,13.0,MG,2022-08-21 19:15:58
277,Itarema,-2.9248,-39.9167,84.65,52,28,17.63,BR,2022-08-21 19:15:58
278,The Pas,53.8251,-101.2541,75.22,69,75,5.75,CA,2022-08-21 19:15:23
279,Vestmanna,62.1564,-7.1664,47.32,81,75,9.22,FO,2022-08-21 19:15:58
280,Pangoa,-12.1167,-73.0,80.19,42,19,5.01,PE,2022-08-21 19:15:59
281,Arkadak,51.9326,43.4978,68.16,38,100,9.55,RU,2022-08-21 19:15:59
282,Muhoroni,-0.1541,35.1988,64.15,91,100,3.85,KE,2022-08-21 19:16:00
283,Guerrero Negro,27.9769,-114.0611,77.22,58,12,12.86,MX,2022-08-21 19:16:03
284,Santa Luzia,-19.7697,-43.8514,71.74,48,75,8.05,BR,2022-08-21 19:16:03
285,Verkhneyarkeyevo,55.4505,54.3145,67.05,65,10,5.57,RU,2022-08-21 19:16:04
286,Takestan,36.0696,49.6959,71.73,66,34,9.62,IR,2022-08-21 19:16:04
287,Srednekolymsk,67.45,153.6833,60.76,68,100,9.13,RU,2022-08-21 19:16:05
288,Los Llanos De Aridane,28.6585,-17.9182,73.15,83,0,16.11,ES,2022-08-21 19:16:05
289,Maniitsoq,65.4167,-52.9,41.25,78,31,3.18,GL,2022-08-21 19:16:06
290,Inuvik,68.3499,-133.7218,47.26,81,100,10.36,CA,2022-08-21 19:16:06
291,Azare,11.6765,10.1948,80.62,63,100,4.72,NG,2022-08-21 19:16:07
292,Tessalit,20.1986,1.0114,100.22,16,17,10.51,ML,2022-08-21 19:16:07
293,Pevek,69.7008,170.3133,47.61,61,0,15.61,RU,2022-08-21 19:16:08
294,Belaya Gora,68.5333,146.4167,58.78,69,100,7.36,RU,2022-08-21 19:16:08
295,Igrim,63.1906,64.4162,64.54,71,12,5.1,RU,2022-08-21 19:16:08
296,Kieta,-6.2167,155.6333,77.07,86,16,1.21,PG,2022-08-21 19:16:09
297,Kalmunai,7.4167,81.8167,81.41,72,100,4.09,LK,2022-08-21 19:16:09
298,Namibe,-15.1961,12.1522,65.12,94,17,4.23,AO,2022-08-21 19:16:10
299,Paamiut,61.994,-49.6678,41.45,90,68,15.95,GL,2022-08-21 19:16:10
300,Touros,-5.1989,-35.4608,79.86,65,100,18.45,BR,2022-08-21 19:16:10
301,Bethel,41.3712,-73.414,86.36,59,40,9.22,US,2022-08-21 19:16:11
302,Ferrol,43.4832,-8.2369,67.26,95,37,4.32,ES,2022-08-21 19:16:11
303,Mazara Del Vallo,37.6641,12.588,82.35,67,17,11.41,IT,2022-08-21 19:16:12
304,Bairiki,1.3292,172.9752,80.6,89,75,0.0,KI,2022-08-21 19:16:12
305,Ewo,-0.8725,14.8206,77.45,73,13,6.67,CG,2022-08-21 19:16:12
306,Richards Bay,-28.783,32.0377,59.09,77,0,6.87,ZA,2022-08-21 19:16:13
307,Ilulissat,69.2167,-51.1,39.22,87,75,4.61,GL,2022-08-21 19:16:13
308,Vostochnyy,55.8167,37.8667,70.07,35,95,8.43,RU,2022-08-21 19:16:14
309,Yumen,40.2833,97.2,66.07,23,100,21.34,CN,2022-08-21 19:16:14
310,Khaniotis,39.9991,23.58,78.55,73,93,5.82,GR,2022-08-21 19:16:14
311,Samfya,-11.3649,29.5565,75.92,35,75,8.63,ZM,2022-08-21 19:16:15
312,Cape Coast,5.1053,-1.2466,74.82,84,8,9.62,GH,2022-08-21 19:16:15
313,Tasiilaq,65.6145,-37.6368,44.76,92,100,2.15,GL,2022-08-21 19:16:16
314,Puerto Penasco,31.3167,-113.5333,85.91,75,8,11.01,MX,2022-08-21 19:16:16
315,Gort,53.0664,-8.8167,65.95,66,100,1.97,IE,2022-08-21 19:16:16
316,Mizdah,31.4451,12.9801,79.5,45,0,14.7,LY,2022-08-21 19:17:17
317,Svetlaya,46.5389,138.3297,60.13,74,74,7.47,RU,2022-08-21 19:17:17
318,Salta,-24.7859,-65.4117,70.57,20,0,5.75,AR,2022-08-21 19:17:18
319,Porto Velho,-8.7619,-63.9039,87.85,33,0,4.61,BR,2022-08-21 19:16:43
320,Azul,-36.777,-59.8585,58.33,54,10,8.37,AR,2022-08-21 19:17:18
321,Hambantota,6.1241,81.1185,78.66,83,100,17.76,LK,2022-08-21 19:17:19
322,Olivet,47.8622,1.8991,72.1,58,0,13.8,FR,2022-08-21 19:17:19
323,Cartagena,10.3997,-75.5144,83.82,65,75,5.75,CO,2022-08-21 19:17:20
324,Marawi,7.9986,124.2928,68.4,92,69,4.41,PH,2022-08-21 19:17:20
325,Makakilo City,21.3469,-158.0858,80.92,58,0,13.8,US,2022-08-21 19:17:20
326,Tarko-Sale,64.9225,77.785,50.09,60,100,5.19,RU,2022-08-21 19:17:21
327,Iqaluit,63.7506,-68.5145,43.7,81,100,10.0,CA,2022-08-21 19:17:21
328,Avdon,54.6667,55.7167,65.52,77,0,2.24,RU,2022-08-21 19:17:22
329,Shancheng,34.7953,116.0817,80.24,92,100,7.54,CN,2022-08-21 19:17:22
330,Langsa,4.4683,97.9683,74.5,97,100,3.22,ID,2022-08-21 19:17:22
331,Koszeg,47.3892,16.541,66.33,75,100,5.01,HU,2022-08-21 19:17:23
332,Lafia,8.4833,8.5167,77.56,81,100,4.43,NG,2022-08-21 19:17:23
333,Mwene-Ditu,-7.0,23.45,79.36,39,47,3.27,CD,2022-08-21 19:17:24
334,Bakonyszentlaszlo,47.389,17.8032,61.61,94,100,13.58,HU,2022-08-21 19:17:24
335,Myhove,48.1575,25.379,64.67,84,67,2.44,UA,2022-08-21 19:17:24
336,Victor Harbor,-35.5667,138.6167,53.67,83,7,16.75,AU,2022-08-21 19:17:25
337,Verkhnyaya Toyma,62.2349,44.9985,58.91,71,39,3.85,RU,2022-08-21 19:17:26
338,Pacific Grove,36.6177,-121.9166,68.41,88,75,8.99,US,2022-08-21 19:14:24
339,Simao,22.7886,100.9748,65.44,98,82,1.83,CN,2022-08-21 19:17:26
340,Maun,-19.9833,23.4167,66.16,16,0,9.22,BW,2022-08-21 19:17:26
341,Fevik,58.3794,8.6766,59.09,68,0,14.05,NO,2022-08-21 19:17:27
342,Manzanillo,20.3433,-77.1167,94.28,45,54,6.08,CU,2022-08-21 19:17:27
343,Lufilufi,-13.8745,-171.5986,77.11,69,47,4.27,WS,2022-08-21 19:17:28
344,Tumut,-35.3,148.2167,39.92,87,100,2.73,AU,2022-08-21 19:17:28
345,Arlit,18.7369,7.3853,98.62,22,0,7.4,NE,2022-08-21 19:17:28
346,Te Anau,-45.4167,167.7167,40.17,98,100,1.16,NZ,2022-08-21 19:17:29
347,Kitimat,54.0524,-128.6534,77.92,55,0,1.25,CA,2022-08-21 19:17:29
348,Juba,4.8517,31.5825,74.48,75,98,2.46,SS,2022-08-21 19:17:30
349,Mayumba,-3.432,10.6554,71.96,90,100,6.69,GA,2022-08-21 19:17:30
350,Petropavlovsk-Kamchatskiy,53.0452,158.6483,55.99,100,100,2.24,RU,2022-08-21 19:14:39
351,Mount Isa,-20.7333,139.5,46.17,49,0,0.0,AU,2022-08-21 19:17:30
352,Lida,53.8833,25.2997,65.17,76,18,5.26,BY,2022-08-21 19:17:31
353,Natal,-5.795,-35.2094,84.42,65,20,21.85,BR,2022-08-21 19:17:32
354,Gat,31.61,34.7642,83.39,50,0,4.0,IL,2022-08-21 19:17:32
355,Khatanga,71.9667,102.5,46.51,66,100,7.09,RU,2022-08-21 19:17:32
356,Komsomolsk-Na-Amure,50.552,137.0152,49.71,97,18,4.47,RU,2022-08-21 19:13:01
357,Vieques,18.425,-65.8329,89.71,70,40,14.97,PR,2022-08-21 19:17:33
358,Ayni,39.3941,68.5377,67.51,35,0,2.71,TJ,2022-08-21 19:17:33
359,Montijo,38.7067,-8.9739,75.11,66,20,17.27,PT,2022-08-21 19:18:34
360,Turukhansk,65.8167,87.9833,39.18,81,17,7.43,RU,2022-08-21 19:18:34
361,Catuday,16.2923,119.8062,81.0,79,100,9.86,PH,2022-08-21 19:18:34
362,Khandyga,62.6667,135.6,50.2,92,100,4.99,RU,2022-08-21 19:18:35
363,Nadvoitsy,63.8667,34.3167,61.38,76,79,12.35,RU,2022-08-21 19:18:35
364,Hornepayne,49.2138,-84.7705,74.59,37,0,4.56,CA,2022-08-21 19:18:36
365,Victoria,22.2855,114.1577,85.32,84,94,4.0,HK,2022-08-21 19:15:23
366,Ilebo,-4.3167,20.5833,76.01,74,53,0.81,CD,2022-08-21 19:18:36
367,Dothan,31.2232,-85.3905,90.7,59,75,3.44,US,2022-08-21 19:17:59
368,Palmer,42.1584,-72.3287,87.4,44,100,5.99,US,2022-08-21 19:18:37
369,Ballina,-28.8667,153.5667,44.64,78,99,2.19,AU,2022-08-21 19:18:37
370,Cobija,-11.0267,-68.7692,84.38,34,2,6.91,BO,2022-08-21 19:18:37
371,Okhotsk,59.3833,143.3,55.09,91,100,14.94,RU,2022-08-21 19:18:39
372,Bontang,0.1333,117.5,76.68,91,94,5.73,ID,2022-08-21 19:18:08
373,Tooele,40.5308,-112.2983,85.05,41,0,5.75,US,2022-08-21 19:18:40
374,Acapulco,16.8634,-99.8901,85.82,70,100,4.61,MX,2022-08-21 19:18:40
375,Tahe,52.3333,124.7333,45.34,94,6,3.06,CN,2022-08-21 19:18:41
376,Nchelenge,-9.3451,28.734,77.81,45,93,4.18,ZM,2022-08-21 19:18:41
377,Kulhudhuffushi,6.6221,73.07,81.36,79,66,16.13,MV,2022-08-21 19:18:42
378,Sobolevo,54.4299,31.8996,58.26,77,97,7.34,RU,2022-08-21 19:18:42
379,Esna,25.2934,32.554,94.71,16,0,9.71,EG,2022-08-21 19:18:42
380,Kardla,58.9978,22.7492,69.06,83,100,12.64,EE,2022-08-21 19:18:43
381,Likasi,-10.9814,26.7333,70.93,32,29,4.07,CD,2022-08-21 19:18:43
382,Pavlohrad,48.5167,35.8667,70.83,53,14,10.63,UA,2022-08-21 19:18:44
383,Kazerun,29.6195,51.6541,88.99,24,58,3.09,IR,2022-08-21 19:18:44
384,Port Lincoln,-34.7333,135.8667,53.91,92,16,15.86,AU,2022-08-21 19:18:44
385,Bihar,47.15,21.9167,73.17,94,40,5.75,RO,2022-08-21 19:18:45
386,Bremerton,47.5673,-122.6326,81.86,69,40,5.75,US,2022-08-21 19:14:57
387,Harwich,51.9419,1.2844,71.98,64,100,4.0,GB,2022-08-21 19:18:45
388,Teguldet,57.3064,88.1667,47.91,99,100,3.69,RU,2022-08-21 19:18:46
389,Santana Do Livramento,-30.8908,-55.5328,61.3,53,1,5.61,BR,2022-08-21 19:18:46
390,Ola,59.5833,151.2833,57.15,90,61,10.78,RU,2022-08-21 19:18:46
391,Taksimo,56.3444,114.8794,49.15,91,100,0.47,RU,2022-08-21 19:18:47
392,Mattru,7.6244,-11.8332,74.53,95,100,4.36,SL,2022-08-21 19:18:47
393,College,64.8569,-147.8028,68.07,63,75,0.0,US,2022-08-21 19:14:27
394,Blyth,55.1271,-1.5086,62.78,64,0,6.91,GB,2022-08-21 19:18:48
395,Aksha,50.2814,113.2867,48.52,67,85,12.39,RU,2022-08-21 19:18:48
396,Egvekinot,66.3167,-179.1667,47.41,64,0,2.73,RU,2022-08-21 19:18:39
397,Verkhoyansk,67.5447,133.385,47.82,97,78,2.98,RU,2022-08-21 19:18:49
398,Batagay-Alyta,67.8006,130.4114,44.24,96,100,2.21,RU,2022-08-21 19:18:49
399,Atar,20.5169,-13.0499,95.68,34,100,6.2,MR,2022-08-21 19:18:49
400,Yatou,37.15,122.3833,71.15,81,28,7.96,CN,2022-08-21 19:18:50
401,Gamba,-2.65,10.0,73.02,88,100,6.96,GA,2022-08-21 19:18:50
402,Palana,59.1167,159.9667,51.15,92,100,8.21,RU,2022-08-21 19:18:51
403,Oriximina,-1.7656,-55.8661,92.64,41,66,5.17,BR,2022-08-21 19:18:51
404,Halifax,44.6453,-63.5724,85.89,56,0,10.36,CA,2022-08-21 19:16:10
405,Jakar,27.5492,90.7525,56.3,95,45,2.01,BT,2022-08-21 19:18:52
406,Katobu,-4.9408,122.5276,72.48,89,62,3.8,ID,2022-08-21 19:19:52
407,Kovur,14.4833,79.9833,86.56,60,99,4.92,IN,2022-08-21 19:19:52
408,Castres,43.5833,2.1667,79.02,50,0,11.5,FR,2022-08-21 19:19:53
409,Baturaja,-4.1333,104.1667,72.59,98,100,2.44,ID,2022-08-21 19:19:53
410,Hobyo,5.3505,48.5268,76.64,84,56,24.63,SO,2022-08-21 19:19:53
411,Healdsburg,38.6105,-122.8692,96.91,53,20,6.91,US,2022-08-21 19:17:48
412,Port Augusta,-32.5,137.7667,51.71,69,0,7.85,AU,2022-08-21 19:19:42
413,Krasnogvardeyets,52.6804,52.3635,72.43,51,35,6.98,RU,2022-08-21 19:19:54
414,Solwezi,-12.1688,26.3894,68.05,30,43,4.65,ZM,2022-08-21 19:19:55
415,Port Macquarie,-31.4333,152.9167,51.24,90,25,6.87,AU,2022-08-21 19:19:55
416,Storforshei,66.4043,14.5233,62.38,82,75,5.75,NO,2022-08-21 19:19:55
417,Svarstad,59.399,9.9698,63.37,47,0,1.99,NO,2022-08-21 19:19:58
418,Atambua,-9.1061,124.8925,66.38,80,31,6.87,ID,2022-08-21 19:19:59
419,Praia Da Vitoria,38.7333,-27.0667,77.25,78,20,2.66,PT,2022-08-21 19:19:59
420,Cayenne,4.9333,-52.3333,84.24,70,75,2.3,GF,2022-08-21 19:15:28
421,Rupnagar,30.9664,76.5331,79.3,82,55,2.75,IN,2022-08-21 19:20:00
422,Lukaya,-0.1489,31.8748,68.92,77,73,1.5,UG,2022-08-21 19:20:00
423,Nemuro,43.3236,145.575,63.41,94,46,4.72,JP,2022-08-21 19:20:01
424,Hammerfest,70.6634,23.6821,68.45,77,40,9.22,NO,2022-08-21 19:20:01
425,Redding,40.5865,-122.3917,98.62,21,0,5.99,US,2022-08-21 19:20:02
426,Sevierville,35.8681,-83.5618,84.49,72,20,6.91,US,2022-08-21 19:17:29
427,Valparaiso,-33.0393,-71.6273,64.0,88,100,4.61,CL,2022-08-21 19:20:02
428,Salinopolis,-0.6136,-47.3561,83.23,70,100,10.89,BR,2022-08-21 19:20:03
429,Sibu,2.3,111.8167,75.51,94,40,1.14,MY,2022-08-21 19:20:04
430,Havelock,34.8791,-76.9013,85.95,86,71,1.99,US,2022-08-21 19:20:04
431,Tambun,-6.2641,107.0712,81.48,86,100,2.93,ID,2022-08-21 19:20:05
432,Constitucion,-35.3333,-72.4167,61.18,62,0,7.36,CL,2022-08-21 19:20:06
433,Maragogi,-9.0122,-35.2225,75.07,82,98,12.19,BR,2022-08-21 19:20:06
434,Chunian,30.964,73.9803,87.94,56,87,4.79,PK,2022-08-21 19:20:06
435,Bilma,18.6853,12.9164,99.88,21,5,5.84,NE,2022-08-21 19:20:07
436,Morondava,-20.2833,44.2833,75.69,62,0,14.74,MG,2022-08-21 19:20:07
437,Mackenzie,55.2999,-123.1698,75.42,46,0,3.44,CA,2022-08-21 19:15:23
438,Vasarosnameny,48.1333,22.3167,70.81,77,100,4.12,HU,2022-08-21 19:20:08
439,Chemainus,48.9163,-123.7194,73.99,70,75,9.22,CA,2022-08-21 19:20:02
440,Sunnyside,46.3237,-120.0087,90.43,47,13,0.25,US,2022-08-21 19:20:08
441,Qarqin,37.4185,66.0436,78.35,13,99,9.95,AF,2022-08-21 19:20:09
442,Kailua,21.4022,-157.7394,82.38,70,20,13.8,US,2022-08-21 19:17:40
443,Ugoofaaru,5.6667,73.0,82.29,74,49,15.66,MV,2022-08-21 19:20:09
444,Miri,4.4148,114.0089,75.34,100,40,3.44,MY,2022-08-21 19:20:10
445,Itaituba,-4.2761,-55.9836,87.96,62,100,5.75,BR,2022-08-21 19:20:10
446,Mandalgovi,45.7625,106.2708,44.71,73,96,11.88,MN,2022-08-21 19:20:11
447,Fairbanks,64.8378,-147.7164,67.08,64,40,1.01,US,2022-08-21 19:17:39
448,Mukdahan,16.5833,104.5,74.46,98,100,3.89,TH,2022-08-21 19:20:11
449,Kousseri,12.0769,15.0306,75.87,86,75,8.32,CM,2022-08-21 19:20:12
450,Borzya,50.3833,116.5167,44.69,80,33,4.65,RU,2022-08-21 19:21:12
451,Aubenas,44.6201,4.3899,74.16,50,70,6.58,FR,2022-08-21 19:21:12
452,Pajapan,18.25,-94.7,82.56,65,0,8.37,MX,2022-08-21 19:21:13
453,Ustupo,9.1333,-77.9333,84.09,72,100,4.18,PA,2022-08-21 19:21:13
454,Viedma,-40.8135,-62.9967,57.31,45,1,10.63,AR,2022-08-21 19:21:14
455,Mecca,21.4267,39.8261,91.54,27,70,4.27,SA,2022-08-21 19:20:01
456,Ailigandi,9.2333,-78.0167,82.99,78,100,3.91,PA,2022-08-21 19:21:14
457,Taltal,-25.4,-70.4833,59.29,71,84,4.16,CL,2022-08-21 19:21:15
458,Shar,49.5886,81.0453,55.44,54,33,3.76,KZ,2022-08-21 19:21:15
459,Kalabo,-14.97,22.6814,66.13,19,5,7.02,ZM,2022-08-21 19:21:15
460,Dunda,-8.1167,34.25,70.63,50,34,8.7,TZ,2022-08-21 19:21:16
461,Contamana,-7.3333,-75.0167,90.37,22,21,4.61,PE,2022-08-21 19:21:16
462,Sinnar,13.5691,33.5672,80.1,69,100,7.83,SD,2022-08-21 19:21:16
463,Noumea,-22.2763,166.4572,72.0,99,99,13.06,NC,2022-08-21 19:21:17
464,Half Moon Bay,37.4636,-122.4286,85.87,68,100,16.11,US,2022-08-21 19:17:54
465,Takoradi,4.8845,-1.7554,76.24,80,35,9.08,GH,2022-08-21 19:21:17
466,Fuyang,32.9,115.8167,84.45,68,100,7.0,CN,2022-08-21 19:21:18
467,Grivenskaya,45.6473,38.176,79.61,42,6,13.38,RU,2022-08-21 19:21:18
468,Shadrinsk,56.0852,63.6335,57.74,61,60,1.63,RU,2022-08-21 19:21:18
469,Mitsamiouli,-11.3847,43.2844,75.69,77,1,4.05,KM,2022-08-21 19:21:19
470,Fengcheng,40.4536,124.0717,66.81,89,100,1.57,CN,2022-08-21 19:21:19
471,Santa Maria,-29.6842,-53.8069,64.89,59,0,4.07,BR,2022-08-21 19:19:02
472,Vigrestad,58.5667,5.7,59.59,76,14,12.75,NO,2022-08-21 19:21:20
473,Blagoyevo,63.3667,47.9167,59.43,68,73,3.98,RU,2022-08-21 19:21:20
474,Bachatskiy,54.2927,86.1285,52.12,96,100,6.38,RU,2022-08-21 19:21:20
475,Dasoguz,41.8363,59.9666,64.35,36,0,11.5,TM,2022-08-21 19:21:21
476,Krasnoselkup,65.7,82.4667,41.59,76,77,8.1,RU,2022-08-21 19:21:21
477,Escuinapa,22.85,-105.8,92.53,49,25,7.65,MX,2022-08-21 19:21:22
478,Kloulklubed,7.0419,134.2556,82.45,74,80,6.29,PW,2022-08-21 19:21:22
479,Povenets,62.8487,34.8262,61.34,83,100,8.39,RU,2022-08-21 19:21:23
480,Carutapera,-1.195,-46.02,87.33,53,100,10.31,BR,2022-08-21 19:21:23
481,Port Hedland,-20.3167,118.5667,57.25,58,0,9.22,AU,2022-08-21 19:19:42
482,Abancay,-13.6339,-72.8814,69.73,41,46,8.79,PE,2022-08-21 19:21:24
483,Severomorsk,69.0689,33.4162,61.2,61,9,11.99,RU,2022-08-21 19:21:24
484,Asfi,32.2994,-9.2372,77.29,65,0,21.23,MA,2022-08-21 19:21:24
485,Maumere,-8.6199,122.2111,75.07,76,16,7.18,ID,2022-08-21 19:21:25
486,Pipar,26.3856,73.5378,82.36,71,100,9.15,IN,2022-08-21 19:21:25
487,Bridlington,54.0831,-0.1919,67.89,68,100,8.05,GB,2022-08-21 19:21:26
488,Sao Jose De Ribamar,-2.5619,-44.0542,93.58,62,99,10.11,BR,2022-08-21 19:21:26
489,Ritchie,-29.038,24.6028,43.81,19,0,4.94,ZA,2022-08-21 19:21:26
490,Kribi,2.95,9.9167,76.86,89,100,7.07,CM,2022-08-21 19:21:27
491,Ryotsu,38.0833,138.4333,75.54,84,0,8.03,JP,2022-08-21 19:21:27
492,Akureyri,65.6835,-18.0878,46.33,66,40,8.05,IS,2022-08-21 19:21:19
493,Sabang,5.8933,95.3214,82.22,76,100,16.49,ID,2022-08-21 19:21:28
494,Choix,26.7092,-108.3219,88.61,59,57,5.73,MX,2022-08-21 19:21:28
495,Vila Franca Do Campo,37.7167,-25.4333,73.81,75,74,1.43,PT,2022-08-21 19:21:29
496,Gunjur,13.2019,-16.7339,82.47,74,75,9.33,GM,2022-08-21 19:21:29
497,Tafresh,34.692,50.013,70.81,18,98,8.41,IR,2022-08-21 19:20:09
498,Dombarovskiy,50.7587,59.5386,61.39,38,0,10.2,RU,2022-08-21 19:22:30
499,Boden,65.8252,21.6886,59.0,99,100,5.93,SE,2022-08-21 19:22:30
500,Lagos,6.5833,3.75,80.92,85,95,4.72,NG,2022-08-21 19:19:42
501,Bathsheba,13.2167,-59.5167,86.61,70,40,8.05,BB,2022-08-21 19:22:31
502,Bhawanipatna,19.9,83.1667,74.8,91,96,5.19,IN,2022-08-21 19:22:31
503,Muborak,39.2553,65.1528,70.92,15,0,15.5,UZ,2022-08-21 19:22:31
504,Byron Bay,-28.65,153.6167,44.56,70,100,2.33,AU,2022-08-21 19:22:32
505,Sao Miguel Do Araguaia,-13.275,-50.1628,92.21,17,3,7.27,BR,2022-08-21 19:22:32
506,Denpasar,-8.65,115.2167,78.46,88,20,10.36,ID,2022-08-21 19:22:32
507,Faro,37.0194,-7.9322,93.18,24,0,13.8,PT,2022-08-21 19:22:33
508,Skelleftea,64.7507,20.9528,61.0,100,75,6.91,SE,2022-08-21 19:22:33
509,Chandbali,20.7833,86.7667,82.13,82,12,8.01,IN,2022-08-21 19:22:34
510,Norsup,-16.0667,167.3833,75.6,76,57,9.44,VU,2022-08-21 19:22:34
511,Khani,41.9563,42.9566,65.77,42,89,5.99,GE,2022-08-21 19:22:34
512,Padang,-0.9492,100.3543,77.92,72,100,2.95,ID,2022-08-21 19:22:35
513,Khudumelapye,-23.8833,24.75,54.9,33,0,8.1,BW,2022-08-21 19:22:35
514,Camocim,-2.9022,-40.8411,85.5,53,69,13.91,BR,2022-08-21 19:22:36
515,Nanchang,28.6833,115.8833,84.99,57,100,7.92,CN,2022-08-21 19:22:36
516,Yunyang,33.4474,112.7142,82.27,68,58,7.23,CN,2022-08-21 19:22:36
517,Porto Novo,6.4965,2.6036,76.82,82,99,6.51,BJ,2022-08-21 19:22:37
518,Sao Joao Da Barra,-21.6403,-41.0511,71.69,58,93,14.18,BR,2022-08-21 19:22:37
519,Champasak,14.75,106.0,72.59,100,100,2.71,LA,2022-08-21 19:22:38
520,Strai,58.2,7.9,57.79,67,0,8.05,NO,2022-08-21 19:22:38
521,Madisonville,37.3281,-87.4989,82.22,75,30,1.01,US,2022-08-21 19:19:49
522,San Quintin,30.4833,-115.95,72.63,73,60,8.59,MX,2022-08-21 19:22:39
523,Imbituba,-28.24,-48.6703,69.85,82,0,25.99,BR,2022-08-21 19:22:39
524,Bam,29.106,58.357,84.27,9,0,10.42,IR,2022-08-21 19:19:40
525,Sorland,67.667,12.6934,53.46,96,100,3.2,NO,2022-08-21 19:22:39
526,Aswan,24.0934,32.907,94.68,17,0,11.99,EG,2022-08-21 19:22:40
527,Ngaoundere,7.3167,13.5833,64.45,97,100,4.0,CM,2022-08-21 19:22:40
528,Gizo,-8.103,156.8419,80.76,76,96,8.59,SB,2022-08-21 19:22:41
529,Pekan,3.4836,103.3996,75.31,89,100,5.91,MY,2022-08-21 19:22:41
530,Rolla,37.9514,-91.7713,83.21,56,40,9.22,US,2022-08-21 19:22:41
531,Eydhafushi,5.1033,73.0708,81.9,76,30,15.52,MV,2022-08-21 19:21:18
532,Tromso,69.6496,18.957,60.82,88,0,5.75,NO,2022-08-21 19:22:42
533,Mount Gambier,-37.8333,140.7667,49.91,100,100,14.97,AU,2022-08-21 19:22:42
534,Ler,8.3018,30.1418,76.03,75,77,3.87,SS,2022-08-21 19:22:43
